$GPGGA,000105,3812.3677,N,01533.4625,E,1,08,0.9,545.4,M,46.9,M,,*47
$GPGSV,3,1,12,01,40,083,45,02,20,282,43,03,30,183,47,04,60,132,42*74
$GPGGA,000106,3812.3696,N,01533.4650,E,1,08,0.9,545.4,M,46.9,M,,*47
$GPGSV,3,1,12,01,40,083,45,02,20,282,43,03,30,183,47,04,60,132,42*74
$GPGGA,000107,3812.3716,N,01533.4675,E,1,08,0.9,545.4,M,46.9,M,,*47
$GPGSV,3,1,12,01,40,083,45,02,20,282,43,03,30,183,47,04,60,132,42*74
$GPGGA,000108,3812.3736,N,01533.4700,E,1,08,0.9,545.4,M,46.9,M,,*47
$GPGSV,3,1,12,01,40,083,45,02,20,282,43,03,30,183,47,04,60,132,42*74
$GPGGA,000109,3812.3755,N,01533.4725,E,1,08,0.9,545.4,M,46.9,M,,*47
$GPGSV,3,1,12,01,40,083,45,02,20,282,43,03,30,183,47,04,60,132,42*74
$GPGGA,000110,3812.3775,N,01533.4750,E,1,08,0.9,545.4,M,46.9,M,,*47
$GPGSV,3,1,12,01,40,083,45,02,20,282,43,03,30,183,47,04,60,132,42*74
$GPGGA,000111,3812.3795,N,01533.4775,E,1,08,0.9,545.4,M,46.9,M,,*47
$GPGSV,3,1,12,01,40,083,45,02,20,282,43,03,30,183,47,04,60,132,42*74
$GPGGA,000112,3812.3814,N,01533.4800,E,1,08,0.9,545.4,M,46.9,M,,*47
$GPGSV,3,1,12,01,40,083,45,02,20,282,43,03,30,183,47,04,60,132,42*74
$GPGGA,000113,3812.3834,N,01533.4825,E,1,08,0.9,545.4,M,46.9,M,,*47
$GPGSV,3,1,12,01,40,083,45,02,20,282,43,03,30,183,47,04,60,132,42*74
$GPGGA,000114,3812.3853,N,01533.4850,E,1,08,0.9,545.4,M,46.9,M,,*47
$GPGSV,3,1,12,01,40,083,45,02,20,282,43,03,30,183,47,04,60,132,42*74
$GPGGA,000115,3812.3873,N,01533.4875,E,1,08,0.9,545.4,M,46.9,M,,*47
$GPGSV,3,1,12,01,40,083,45,02,20,282,43,03,30,183,47,04,60,132,42*74
$GPGGA,000116,3812.3893,N,01533.4900,E,1,08,0.9,545.4,M,46.9,M,,*47
$GPGSV,3,1,12,01,40,083,45,02,20,282,43,03,30,183,47,04,60,132,42*74
$GPGGA,000117,3812.3912,N,01533.4925,E,1,08,0.9,545.4,M,46.9,M,,*47
$GPGSV,3,1,12,01,40,083,45,02,20,282,43,03,30,183,47,04,60,132,42*74
$GPGGA,000118,3812.3932,N,01533.4950,E,1,08,0.9,545.4,M,46.9,M,,*47
$GPGSV,3,1,12,01,40,083,45,02,20,282,43,03,30,183,47,04,60,132,42*74
$GPGGA,000119,3812.3952,N,01533.4975,E,1,08,0.9,545.4,M,46.9,M,,*47
$GPGSV,3,1,12,01,40,083,45,02,20,282,43,03,30,183,47,04,60,132,42*74
$GPGGA,000120,3812.3971,N,01533.5000,E,1,08,0.9,545.4,M,46.9,M,,*47
$GPGSV,3,1,12,01,40,083,45,02,20,282,43,03,30,183,47,04,60,132,42*74
$GPGGA,000121,3812.3991,N,01533.5025,E,1,08,0.9,545.4,M,46.9,M,,*47
$GPGSV,3,1,12,01,40,083,45,02,20,282,43,03,30,183,47,04,60,132,42*74
$GPGGA,000122,3812.4011,N,01533.5050,E,1,08,0.9,545.4,M,46.9,M,,*47
$GPGSV,3,1,12,01,40,083,45,02,20,282,43,03,30,183,47,04,60,132,42*74
$GPGGA,000123,3812.4030,N,01533.5075,E,1,08,0.9,545.4,M,46.9,M,,*47
$GPGSV,3,1,12,01,40,083,45,02,20,282,43,03,30,183,47,04,60,132,42*74
$GPGGA,000124,3812.4050,N,01533.5100,E,1,08,0.9,545.4,M,46.9,M,,*47
$GPGSV,3,1,12,01,40,083,45,02,20,282,43,03,30,183,47,04,60,132,42*74
$GPGGA,000125,3812.4070,N,01533.5125,E,1,08,0.9,545.4,M,46.9,M,,*47
$GPGSV,3,1,12,01,40,083,45,02,20,282,43,03,30,183,47,04,60,132,42*74
$GPGGA,000126,3812.4089,N,01533.5150,E,1,08,0.9,545.4,M,46.9,M,,*47
$GPGSV,3,1,12,01,40,083,45,02,20,282,43,03,30,183,47,04,60,132,42*74
$GPGGA,000127,3812.4109,N,01533.5175,E,1,08,0.9,545.4,M,46.9,M,,*47
$GPGSV,3,1,12,01,40,083,45,02,20,282,43,03,30,183,47,04,60,132,42*74
$GPGGA,000128,3812.4128,N,01533.5200,E,1,08,0.9,545.4,M,46.9,M,,*47
$GPGSV,3,1,12,01,40,083,45,02,20,282,43,03,30,183,47,04,60,132,42*74
$GPGGA,000129,3812.4148,N,01533.5225,E,1,08,0.9,545.4,M,46.9,M,,*47
$GPGSV,3,1,12,01,40,083,45,02,20,282,43,03,30,183,47,04,60,132,42*74
$GPGGA,000130,3812.4168,N,01533.5250,E,1,08,0.9,545.4,M,46.9,M,,*47
$GPGSV,3,1,12,01,40,083,45,02,20,282,43,03,30,183,47,04,60,132,42*74
$GPGGA,000131,3812.4187,N,01533.5275,E,1,08,0.9,545.4,M,46.9,M,,*47
$GPGSV,3,1,12,01,40,083,45,02,20,282,43,03,30,183,47,04,60,132,42*74
$GPGGA,000132,3812.4207,N,01533.5300,E,1,08,0.9,545.4,M,46.9,M,,*47
$GPGSV,3,1,12,01,40,083,45,02,20,282,43,03,30,183,47,04,60,132,42*74
$GPGGA,000133,3812.4227,N,01533.5325,E,1,08,0.9,545.4,M,46.9,M,,*47
$GPGSV,3,1,12,01,40,083,45,02,20,282,43,03,30,183,47,04,60,132,42*74
$GPGGA,000134,3812.4246,N,01533.5350,E,1,08,0.9,545.4,M,46.9,M,,*47
$GPGSV,3,1,12,01,40,083,45,02,20,282,43,03,30,183,47,04,60,132,42*74
$GPGGA,000135,3812.4266,N,01533.5375,E,1,08,0.9,545.4,M,46.9,M,,*47
$GPGSV,3,1,12,01,40,083,45,02,20,282,43,03,30,183,47,04,60,132,42*74
$GPGGA,000136,3812.4286,N,01533.5400,E,1,08,0.9,545.4,M,46.9,M,,*47
$GPGSV,3,1,12,01,40,083,45,02,20,282,43,03,30,183,47,04,60,132,42*74
$GPGGA,000137,3812.4305,N,01533.5425,E,1,08,0.9,545.4,M,46.9,M,,*47
$GPGSV,3,1,12,01,40,083,45,02,20,282,43,03,30,183,47,04,60,132,42*74
$GPGGA,000138,3812.4325,N,01533.5450,E,1,08,0.9,545.4,M,46.9,M,,*47
$GPGSV,3,1,12,01,40,083,45,02,20,282,43,03,30,183,47,04,60,132,42*74
$GPGGA,000139,3812.4345,N,01533.5475,E,1,08,0.9,545.4,M,46.9,M,,*47
$GPGSV,3,1,12,01,40,083,45,02,20,282,43,03,30,183,47,04,60,132,42*74
$GPGGA,000140,3812.4364,N,01533.5500,E,1,08,0.9,545.4,M,46.9,M,,*47
$GPGSV,3,1,12,01,40,083,45,02,20,282,43,03,30,183,47,04,60,132,42*74
$GPGGA,000141,3812.4384,N,01533.5525,E,1,08,0.9,545.4,M,46.9,M,,*47
$GPGSV,3,1,12,01,40,083,45,02,20,282,43,03,30,183,47,04,60,132,42*74
$GPGGA,000142,3812.4403,N,01533.5550,E,1,08,0.9,545.4,M,46.9,M,,*47
$GPGSV,3,1,12,01,40,083,45,02,20,282,43,03,30,183,47,04,60,132,42*74
$GPGGA,000143,3812.4423,N,01533.5575,E,1,08,0.9,545.4,M,46.9,M,,*47
$GPGSV,3,1,12,01,40,083,45,02,20,282,43,03,30,183,47,04,60,132,42*74
$GPGGA,000144,3812.4443,N,01533.5600,E,1,08,0.9,545.4,M,46.9,M,,*47
$GPGSV,3,1,12,01,40,083,45,02,20,282,43,03,30,183,47,04,60,132,42*74
$GPGGA,000145,3812.4462,N,01533.5625,E,1,08,0.9,545.4,M,46.9,M,,*47
$GPGSV,3,1,12,01,40,083,45,02,20,282,43,03,30,183,47,04,60,132,42*74
$GPGGA,000146,3812.4482,N,01533.5650,E,1,08,0.9,545.4,M,46.9,M,,*47
$GPGSV,3,1,12,01,40,083,45,02,20,282,43,03,30,183,47,04,60,132,42*74
$GPGGA,000147,3812.4502,N,01533.5675,E,1,08,0.9,545.4,M,46.9,M,,*47
$GPGSV,3,1,12,01,40,083,45,02,20,282,43,03,30,183,47,04,60,132,42*74
$GPGGA,000148,3812.4521,N,01533.5700,E,1,08,0.9,545.4,M,46.9,M,,*47
$GPGSV,3,1,12,01,40,083,45,02,20,282,43,03,30,183,47,04,60,132,42*74
$GPGGA,000149,3812.4541,N,01533.5725,E,1,08,0.9,545.4,M,46.9,M,,*47
$GPGSV,3,1,12,01,40,083,45,02,20,282,43,03,30,183,47,04,60,132,42*74
$GPGGA,000150,3812.4561,N,01533.5750,E,1,08,0.9,545.4,M,46.9,M,,*47
$GPGSV,3,1,12,01,40,083,45,02,20,282,43,03,30,183,47,04,60,132,42*74
$GPGGA,000151,3812.4580,N,01533.5775,E,1,08,0.9,545.4,M,46.9,M,,*47
$GPGSV,3,1,12,01,40,083,45,02,20,282,43,03,30,183,47,04,60,132,42*74
$GPGGA,000152,3812.4600,N,01533.5800,E,1,08,0.9,545.4,M,46.9,M,,*47
$GPGSV,3,1,12,01,40,083,45,02,20,282,43,03,30,183,47,04,60,132,42*74
$GPGGA,000153,3812.4620,N,01533.5824,E,1,08,0.9,545.4,M,46.9,M,,*47
$GPGSV,3,1,12,01,40,083,45,02,20,282,43,03,30,183,47,04,60,132,42*74
$GPGGA,000154,3812.4639,N,01533.5849,E,1,08,0.9,545.4,M,46.9,M,,*47
$GPGSV,3,1,12,01,40,083,45,02,20,282,43,03,30,183,47,04,60,132,42*74
$GPGGA,000155,3812.4659,N,01533.5874,E,1,08,0.9,545.4,M,46.9,M,,*47
$GPGSV,3,1,12,01,40,083,45,02,20,282,43,03,30,183,47,04,60,132,42*74
$GPGGA,000156,3812.4678,N,01533.5899,E,1,08,0.9,545.4,M,46.9,M,,*47
$GPGSV,3,1,12,01,40,083,45,02,20,282,43,03,30,183,47,04,60,132,42*74
$GPGGA,000157,3812.4698,N,01533.5924,E,1,08,0.9,545.4,M,46.9,M,,*47
$GPGSV,3,1,12,01,40,083,45,02,20,282,43,03,30,183,47,04,60,132,42*74
$GPGGA,000158,3812.4718,N,01533.5949,E,1,08,0.9,545.4,M,46.9,M,,*47
$GPGSV,3,1,12,01,40,083,45,02,20,282,43,03,30,183,47,04,60,132,42*74
$GPGGA,000159,3812.4737,N,01533.5974,E,1,08,0.9,545.4,M,46.9,M,,*47
$GPGSV,3,1,12,01,40,083,45,02,20,282,43,03,30,183,47,04,60,132,42*74
$GPGGA,000200,3812.4757,N,01533.5999,E,1,08,0.9,545.4,M,46.9,M,,*47
$GPGSV,3,1,12,01,40,083,45,02,20,282,43,03,30,183,47,04,60,132,42*74
$GPGGA,000201,3812.4777,N,01533.6024,E,1,08,0.9,545.4,M,46.9,M,,*47
$GPGSV,3,1,12,01,40,083,45,02,20,282,43,03,30,183,47,04,60,132,42*74
$GPGGA,000202,3812.4796,N,01533.6049,E,1,08,0.9,545.4,M,46.9,M,,*47
$GPGSV,3,1,12,01,40,083,45,02,20,282,43,03,30,183,47,04,60,132,42*74
$GPGGA,000203,3812.4816,N,01533.6074,E,1,08,0.9,545.4,M,46.9,M,,*47
$GPGSV,3,1,12,01,40,083,45,02,20,282,43,03,30,183,47,04,60,132,42*74
$GPGGA,000204,3812.4836,N,01533.6099,E,1,08,0.9,545.4,M,46.9,M,,*47
$GPGSV,3,1,12,01,40,083,45,02,20,282,43,03,30,183,47,04,60,132,42*74
$GPGGA,000205,3812.4855,N,01533.6124,E,1,08,0.9,545.4,M,46.9,M,,*47
$GPGSV,3,1,12,01,40,083,45,02,20,282,43,03,30,183,47,04,60,132,42*74
$GPGGA,000206,3812.4875,N,01533.6149,E,1,08,0.9,545.4,M,46.9,M,,*47
$GPGSV,3,1,12,01,40,083,45,02,20,282,43,03,30,183,47,04,60,132,42*74
$GPGGA,000207,3812.4895,N,01533.6174,E,1,08,0.9,545.4,M,46.9,M,,*47
$GPGSV,3,1,12,01,40,083,45,02,20,282,43,03,30,183,47,04,60,132,42*74
$GPGGA,000208,3812.4914,N,01533.6199,E,1,08,0.9,545.4,M,46.9,M,,*47
$GPGSV,3,1,12,01,40,083,45,02,20,282,43,03,30,183,47,04,60,132,42*74
$GPGGA,000209,3812.4934,N,01533.6224,E,1,08,0.9,545.4,M,46.9,M,,*47
$GPGSV,3,1,12,01,40,083,45,02,20,282,43,03,30,183,47,04,60,132,42*74
$GPGGA,000210,3812.4953,N,01533.6249,E,1,08,0.9,545.4,M,46.9,M,,*47
$GPGSV,3,1,12,01,40,083,45,02,20,282,43,03,30,183,47,04,60,132,42*74
$GPGGA,000211,3812.4973,N,01533.6274,E,1,08,0.9,545.4,M,46.9,M,,*47
$GPGSV,3,1,12,01,40,083,45,02,20,282,43,03,30,183,47,04,60,132,42*74
$GPGGA,000212,3812.4993,N,01533.6299,E,1,08,0.9,545.4,M,46.9,M,,*47
$GPGSV,3,1,12,01,40,083,45,02,20,282,43,03,30,183,47,04,60,132,42*74
$GPGGA,000213,3812.5012,N,01533.6324,E,1,08,0.9,545.4,M,46.9,M,,*47
$GPGSV,3,1,12,01,40,083,45,02,20,282,43,03,30,183,47,04,60,132,42*74
$GPGGA,000214,3812.5032,N,01533.6349,E,1,08,0.9,545.4,M,46.9,M,,*47
$GPGSV,3,1,12,01,40,083,45,02,20,282,43,03,30,183,47,04,60,132,42*74
$GPGGA,000215,3812.5052,N,01533.6374,E,1,08,0.9,545.4,M,46.9,M,,*47
$GPGSV,3,1,12,01,40,083,45,02,20,282,43,03,30,183,47,04,60,132,42*74
$GPGGA,000216,3812.5071,N,01533.6399,E,1,08,0.9,545.4,M,46.9,M,,*47
$GPGSV,3,1,12,01,40,083,45,02,20,282,43,03,30,183,47,04,60,132,42*74
$GPGGA,000217,3812.5091,N,01533.6424,E,1,08,0.9,545.4,M,46.9,M,,*47
$GPGSV,3,1,12,01,40,083,45,02,20,282,43,03,30,183,47,04,60,132,42*74
$GPGGA,000218,3812.5111,N,01533.6449,E,1,08,0.9,545.4,M,46.9,M,,*47
$GPGSV,3,1,12,01,40,083,45,02,20,282,43,03,30,183,47,04,60,132,42*74
$GPGGA,000219,3812.5130,N,01533.6474,E,1,08,0.9,545.4,M,46.9,M,,*47
$GPGSV,3,1,12,01,40,083,45,02,20,282,43,03,30,183,47,04,60,132,42*74
$GPGGA,000220,3812.5150,N,01533.6499,E,1,08,0.9,545.4,M,46.9,M,,*47
$GPGSV,3,1,12,01,40,083,45,02,20,282,43,03,30,183,47,04,60,132,42*74
$GPGGA,000221,3812.5170,N,01533.6524,E,1,08,0.9,545.4,M,46.9,M,,*47
$GPGSV,3,1,12,01,40,083,45,02,20,282,43,03,30,183,47,04,60,132,42*74
$GPGGA,000222,3812.5189,N,01533.6549,E,1,08,0.9,545.4,M,46.9,M,,*47
$GPGSV,3,1,12,01,40,083,45,02,20,282,43,03,30,183,47,04,60,132,42*74
$GPGGA,000223,3812.5209,N,01533.6574,E,1,08,0.9,545.4,M,46.9,M,,*47
$GPGSV,3,1,12,01,40,083,45,02,20,282,43,03,30,183,47,04,60,132,42*74
$GPGGA,000224,3812.5228,N,01533.6599,E,1,08,0.9,545.4,M,46.9,M,,*47
$GPGSV,3,1,12,01,40,083,45,02,20,282,43,03,30,183,47,04,60,132,42*74
$GPGGA,000225,3812.5248,N,01533.6624,E,1,08,0.9,545.4,M,46.9,M,,*47
$GPGSV,3,1,12,01,40,083,45,02,20,282,43,03,30,183,47,04,60,132,42*74
$GPGGA,000226,3812.5268,N,01533.6649,E,1,08,0.9,545.4,M,46.9,M,,*47
$GPGSV,3,1,12,01,40,083,45,02,20,282,43,03,30,183,47,04,60,132,42*74
$GPGGA,000227,3812.5287,N,01533.6674,E,1,08,0.9,545.4,M,46.9,M,,*47
$GPGSV,3,1,12,01,40,083,45,02,20,282,43,03,30,183,47,04,60,132,42*74
$GPGGA,000228,3812.5307,N,01533.6699,E,1,08,0.9,545.4,M,46.9,M,,*47
$GPGSV,3,1,12,01,40,083,45,02,20,282,43,03,30,183,47,04,60,132,42*74
$GPGGA,000229,3812.5327,N,01533.6724,E,1,08,0.9,545.4,M,46.9,M,,*47
$GPGSV,3,1,12,01,40,083,45,02,20,282,43,03,30,183,47,04,60,132,42*74
$GPGGA,000230,3812.5346,N,01533.6749,E,1,08,0.9,545.4,M,46.9,M,,*47
$GPGSV,3,1,12,01,40,083,45,02,20,282,43,03,30,183,47,04,60,132,42*74
$GPGGA,000231,3812.5366,N,01533.6774,E,1,08,0.9,545.4,M,46.9,M,,*47
$GPGSV,3,1,12,01,40,083,45,02,20,282,43,03,30,183,47,04,60,132,42*74
$GPGGA,000232,3812.5386,N,01533.6799,E,1,08,0.9,545.4,M,46.9,M,,*47
$GPGSV,3,1,12,01,40,083,45,02,20,282,43,03,30,183,47,04,60,132,42*74
$GPGGA,000233,3812.5405,N,01533.6824,E,1,08,0.9,545.4,M,46.9,M,,*47
$GPGSV,3,1,12,01,40,083,45,02,20,282,43,03,30,183,47,04,60,132,42*74
$GPGGA,000234,3812.5425,N,01533.6849,E,1,08,0.9,545.4,M,46.9,M,,*47
$GPGSV,3,1,12,01,40,083,45,02,20,282,43,03,30,183,47,04,60,132,42*74
$GPGGA,000235,3812.5444,N,01533.6874,E,1,08,0.9,545.4,M,46.9,M,,*47
$GPGSV,3,1,12,01,40,083,45,02,20,282,43,03,30,183,47,04,60,132,42*74
$GPGGA,000236,3812.5464,N,01533.6899,E,1,08,0.9,545.4,M,46.9,M,,*47
$GPGSV,3,1,12,01,40,083,45,02,20,282,43,03,30,183,47,04,60,132,42*74
$GPGGA,000237,3812.5484,N,01533.6924,E,1,08,0.9,545.4,M,46.9,M,,*47
$GPGSV,3,1,12,01,40,083,45,02,20,282,43,03,30,183,47,04,60,132,42*74
$GPGGA,000238,3812.5503,N,01533.6949,E,1,08,0.9,545.4,M,46.9,M,,*47
$GPGSV,3,1,12,01,40,083,45,02,20,282,43,03,30,183,47,04,60,132,42*74
$GPGGA,000239,3812.5523,N,01533.6974,E,1,08,0.9,545.4,M,46.9,M,,*47
$GPGSV,3,1,12,01,40,083,45,02,20,282,43,03,30,183,47,04,60,132,42*74
$GPGGA,000240,3812.5543,N,01533.6999,E,1,08,0.9,545.4,M,46.9,M,,*47
$GPGSV,3,1,12,01,40,083,45,02,20,282,43,03,30,183,47,04,60,132,42*74
$GPGGA,000241,3812.5562,N,01533.7024,E,1,08,0.9,545.4,M,46.9,M,,*47
$GPGSV,3,1,12,01,40,083,45,02,20,282,43,03,30,183,47,04,60,132,42*74
$GPGGA,000242,3812.5582,N,01533.7049,E,1,08,0.9,545.4,M,46.9,M,,*47
$GPGSV,3,1,12,01,40,083,45,02,20,282,43,03,30,183,47,04,60,132,42*74
$GPGGA,000243,3812.5602,N,01533.7074,E,1,08,0.9,545.4,M,46.9,M,,*47
$GPGSV,3,1,12,01,40,083,45,02,20,282,43,03,30,183,47,04,60,132,42*74
$GPGGA,000244,3812.5621,N,01533.7099,E,1,08,0.9,545.4,M,46.9,M,,*47
$GPGSV,3,1,12,01,40,083,45,02,20,282,43,03,30,183,47,04,60,132,42*74
$GPGGA,000245,3812.5641,N,01533.7124,E,1,08,0.9,545.4,M,46.9,M,,*47
$GPGSV,3,1,12,01,40,083,45,02,20,282,43,03,30,183,47,04,60,132,42*74
$GPGGA,000246,3812.5661,N,01533.7149,E,1,08,0.9,545.4,M,46.9,M,,*47
$GPGSV,3,1,12,01,40,083,45,02,20,282,43,03,30,183,47,04,60,132,42*74
$GPGGA,000247,3812.5680,N,01533.7174,E,1,08,0.9,545.4,M,46.9,M,,*47
$GPGSV,3,1,12,01,40,083,45,02,20,282,43,03,30,183,47,04,60,132,42*74
$GPGGA,000248,3812.5700,N,01533.7199,E,1,08,0.9,545.4,M,46.9,M,,*47
$GPGSV,3,1,12,01,40,083,45,02,20,282,43,03,30,183,47,04,60,132,42*74
$GPGGA,000249,3812.5719,N,01533.7224,E,1,08,0.9,545.4,M,46.9,M,,*47
$GPGSV,3,1,12,01,40,083,45,02,20,282,43,03,30,183,47,04,60,132,42*74
$GPGGA,000250,3812.5739,N,01533.7249,E,1,08,0.9,545.4,M,46.9,M,,*47
$GPGSV,3,1,12,01,40,083,45,02,20,282,43,03,30,183,47,04,60,132,42*74
$GPGGA,000251,3812.5759,N,01533.7274,E,1,08,0.9,545.4,M,46.9,M,,*47
$GPGSV,3,1,12,01,40,083,45,02,20,282,43,03,30,183,47,04,60,132,42*74
$GPGGA,000252,3812.5778,N,01533.7299,E,1,08,0.9,545.4,M,46.9,M,,*47
$GPGSV,3,1,12,01,40,083,45,02,20,282,43,03,30,183,47,04,60,132,42*74
$GPGGA,000253,3812.5798,N,01533.7324,E,1,08,0.9,545.4,M,46.9,M,,*47
$GPGSV,3,1,12,01,40,083,45,02,20,282,43,03,30,183,47,04,60,132,42*74
$GPGGA,000254,3812.5818,N,01533.7349,E,1,08,0.9,545.4,M,46.9,M,,*47
$GPGSV,3,1,12,01,40,083,45,02,20,282,43,03,30,183,47,04,60,132,42*74
$GPGGA,000255,3812.5837,N,01533.7374,E,1,08,0.9,545.4,M,46.9,M,,*47
$GPGSV,3,1,12,01,40,083,45,02,20,282,43,03,30,183,47,04,60,132,42*74
$GPGGA,000256,3812.5857,N,01533.7399,E,1,08,0.9,545.4,M,46.9,M,,*47
$GPGSV,3,1,12,01,40,083,45,02,20,282,43,03,30,183,47,04,60,132,42*74
$GPGGA,000257,3812.5877,N,01533.7424,E,1,08,0.9,545.4,M,46.9,M,,*47
$GPGSV,3,1,12,01,40,083,45,02,20,282,43,03,30,183,47,04,60,132,42*74
$GPGGA,000258,3812.5896,N,01533.7449,E,1,08,0.9,545.4,M,46.9,M,,*47
$GPGSV,3,1,12,01,40,083,45,02,20,282,43,03,30,183,47,04,60,132,42*74
$GPGGA,000259,3812.5916,N,01533.7474,E,1,08,0.9,545.4,M,46.9,M,,*47
$GPGSV,3,1,12,01,40,083,45,02,20,282,43,03,30,183,47,04,60,132,42*74
